名前,住所,緯度,経度,優先度
東京駅,東京都千代田区丸の内1丁目,35.6812,139.7671,高
新宿駅,東京都新宿区新宿3丁目,35.6896,139.7006,中
渋谷駅,東京都渋谷区道玄坂1丁目,35.6580,139.7016,高
品川駅,東京都港区高輪3丁目,35.6284,139.7387,中
上野駅,東京都台東区上野7丁目,35.7141,139.7774,低
池袋駅,東京都豊島区南池袋1丁目,35.7295,139.7109,中
秋葉原駅,東京都千代田区外神田1丁目,35.6984,139.7731,低
浅草駅,東京都台東区花川戸1丁目,35.7119,139.7983,低
